[
  {
    "name": "Hunter's Coffeeshop Amsterdam West ",
    "description": "",
    "photo": {
      "url": "https://greenmeister.nl/assets/coffeeshopcontent/hunters-vi-amsterdam1.jpg"
    },
    "phone": "",
    "address": "Orteliusstraat 193, Amsterdam, Noord-Holland",
    "location": {
      "latitude": "52.36999739999999",
      "longitude": "4.849044400000025"
    },
    "social": [],
    "menus": [],
    "badges": [],
    "rating": 5
  },
  {
    "name": "Hunter's Coffeeshop Amsterdam Centrum ",
    "description": "",
    "photo": {
      "url": "https://greenmeister.nl/assets/coffeeshopcontent/hunters-v-amsterdam2.jpg"
    },
    "phone": "",
    "address": "Utrechtsestraat 14, Amsterdam, Noord-Holland",
    "location": {
      "latitude": "52.3654397",
      "longitude": "4.8974693"
    },
    "social": [],
    "menus": [],
    "badges": [],
    "rating": 5
  },
  {
    "name": "Boerejongens West ",
    "description": "",
    "photo": {
      "url": "https://greenmeister.nl/assets/coffeeshopcontent/boerejongens-west-amsterdam0.jpg"
    },
    "phone": "",
    "address": "Baarsjesweg 239, Amsterdam, Noord-Holland",
    "location": {
      "latitude": "52.362315",
      "longitude": "4.857548100000031"
    },
    "social": [],
    "menus": [],
    "badges": [],
    "rating": 5
  },
  {
    "name": "Boerejongens Sloterdijk ",
    "description": "",
    "photo": {
      "url": "https://greenmeister.nl/assets/coffeeshopcontent/boerejongens-sloterdijk-amsterdam2.png"
    },
    "phone": "",
    "address": "Humberweg 2, Amsterdam, Noord-Holland",
    "location": {
      "latitude": "52.3912184",
      "longitude": "4.829673800000023"
    },
    "social": [],
    "menus": [],
    "badges": [],
    "rating": 5
  },
  {
    "name": "Boerejongens Center ",
    "description": "",
    "photo": {
      "url": "https://greenmeister.nl/assets/coffeeshopcontent/boerejongens-utrechtsestraat-amsterdam5.png"
    },
    "phone": "",
    "address": "Utrechtsestraat 21, Amsterdam, Noord-Holland",
    "location": {
      "latitude": "52.364874",
      "longitude": "4.8980209999999715"
    },
    "social": [],
    "menus": [],
    "badges": [],
    "rating": 5
  },
  {
    "name": "Boerejongens BIJ ",
    "description": "",
    "photo": {
      "url": "https://greenmeister.nl/assets/coffeeshopcontent/bij-boerejongens-amsterdam2.jpg"
    },
    "phone": "",
    "address": "Bonairestraat 78, Amsterdam, Noord-Holland",
    "location": {
      "latitude": "52.3620628",
      "longitude": "4.855422399999952"
    },
    "social": [],
    "menus": [],
    "badges": [],
    "rating": 5
  },
  {
    "name": "The Corner ",
    "description": "",
    "photo": {
      "url": "https://greenmeister.nl/assets/coffeeshopcontent/the-corner-amsterdam2.jpg"
    },
    "phone": "",
    "address": "Spaarndammerdijk 9, Amsterdam, Noord-Holland",
    "location": {
      "latitude": "52.3917935",
      "longitude": "4.877748399999973"
    },
    "social": [],
    "menus": [],
    "badges": [],
    "rating": 5
  },
  {
    "name": "Coffeeshop Amsterdam ",
    "description": "",
    "photo": {
      "url": "https://greenmeister.nl/assets/coffeeshopcontent/coffeeshop-amsterdam-amsterdam3.png"
    },
    "phone": "",
    "address": "Haarlemmerstraat 44, Amsterdam, Noord-Holland",
    "location": {
      "latitude": "52.38007079999999",
      "longitude": "4.892870300000027"
    },
    "social": [],
    "menus": [],
    "badges": [],
    "rating": 5
  },
  {
    "name": "Tweede Kamer ",
    "description": "",
    "photo": {
      "url": "https://greenmeister.nl/assets/coffeeshopcontent/tweede-kamer-amsterdam3.png"
    },
    "phone": "",
    "address": "Heisteeg 6, Amsterdam, Noord-Holland",
    "location": {
      "latitude": "52.3688426",
      "longitude": "4.888400499999989"
    },
    "social": [],
    "menus": [],
    "badges": [],
    "rating": 5
  },
  {
    "name": "Hunter's Coffeeshop Amsterdam Noord ",
    "description": "",
    "photo": {
      "url": "https://greenmeister.nl/assets/coffeeshopcontent/hunters-iii-amsterdam5.jpg"
    },
    "phone": "",
    "address": "Papaverweg 2, Amsterdam, Noord-Holland",
    "location": {
      "latitude": "52.393773",
      "longitude": "4.9128969"
    },
    "social": [],
    "menus": [],
    "badges": [],
    "rating": 5
  },
  {
    "name": "Hunter's Coffeeshop Amsterdam Noord ",
    "description": "",
    "photo": {
      "url": "https://greenmeister.nl/assets/coffeeshopcontent/hunters-iv-amsterdam2.jpg"
    },
    "phone": "",
    "address": "Waterlandplein 7, Amsterdam, Noord-Holland",
    "location": {
      "latitude": "52.3919123",
      "longitude": "4.955185"
    },
    "social": [],
    "menus": [],
    "badges": [],
    "rating": 5
  },
  {
    "name": "Mr K & Co ",
    "description": "",
    "photo": {
      "url": "https://greenmeister.nl/assets/coffeeshopcontent/mr-k-co-amsterdam4.jpg"
    },
    "phone": "",
    "address": "Tweede Laurierdwarsstraat 44, Amsterdam, Noord-Holland",
    "location": {
      "latitude": "52.3718319",
      "longitude": "4.878808499999991"
    },
    "social": [],
    "menus": [],
    "badges": [],
    "rating": 5
  },
  {
    "name": "De Republiek ",
    "description": "",
    "photo": {
      "url": "https://greenmeister.nl/assets/coffeeshopcontent/de-republiek.png"
    },
    "phone": "",
    "address": "Tweede Nassaustraat 1A, Amsterdam, Noord-Holland",
    "location": {
      "latitude": "52.3821453",
      "longitude": "4.878604099999961"
    },
    "social": [],
    "menus": [],
    "badges": [],
    "rating": 5
  },
  {
    "name": "Siberië ",
    "description": "",
    "photo": {
      "url": "https://greenmeister.nl/assets/coffeeshopcontent/siberi-amsterdam3.jpg"
    },
    "phone": "",
    "address": "Brouwersgracht 11, Amsterdam, Noord-Holland",
    "location": {
      "latitude": "52.3789202",
      "longitude": "4.892960399999993"
    },
    "social": [],
    "menus": [],
    "badges": [],
    "rating": 4
  },
  {
    "name": "The Border ",
    "description": "",
    "photo": {
      "url": "https://greenmeister.nl/assets/coffeeshopcontent/the-border.jpg"
    },
    "phone": "",
    "address": "Amstelveenseweg 1160, Amsterdam, Noord-Holland",
    "location": {
      "latitude": "52.322028",
      "longitude": "4.857133"
    },
    "social": [],
    "menus": [],
    "badges": [],
    "rating": 4
  },
  {
    "name": "The Bulldog Energy ",
    "description": "",
    "photo": {
      "url": "https://greenmeister.nl/assets/coffeeshopcontent/the-bulldog-energy.jpg"
    },
    "phone": "",
    "address": "Oudezijds Voorburgwal 218, Amsterdam, Noord-Holland",
    "location": {
      "latitude": "52.3725472",
      "longitude": "4.896257900000023"
    },
    "social": [],
    "menus": [],
    "badges": [],
    "rating": 4
  },
  {
    "name": "The Bulldog Port 26 ",
    "description": "",
    "photo": {
      "url": "https://greenmeister.nl/assets/coffeeshopcontent/the-bulldog-port-26.jpg"
    },
    "phone": "",
    "address": "Coenhavenweg 26, Amsterdam, Noord-Holland",
    "location": {
      "latitude": "52.4053491",
      "longitude": "4.858138999999937"
    },
    "social": [],
    "menus": [],
    "badges": [],
    "rating": 4
  },
  {
    "name": "The Bulldog Rockshop ",
    "description": "",
    "photo": {
      "url": "https://greenmeister.nl/assets/coffeeshopcontent/the-bulldog-rockshop.jpg"
    },
    "phone": "",
    "address": "Singel 12, Amsterdam, Noord-Holland",
    "location": {
      "latitude": "52.3790984",
      "longitude": "4.893790800000033"
    },
    "social": [],
    "menus": [],
    "badges": [],
    "rating": 4
  },
  {
    "name": "The Bulldog Ex-Police Station ",
    "description": "",
    "photo": {
      "url": "https://greenmeister.nl/assets/coffeeshopcontent/default.png"
    },
    "phone": "",
    "address": "Leidseplein 17, Amsterdam, Noord-Holland",
    "location": {
      "latitude": "52.363948",
      "longitude": "4.883286"
    },
    "social": [],
    "menus": [],
    "badges": [],
    "rating": 4
  },
  {
    "name": "The Bulldog The First ",
    "description": "",
    "photo": {
      "url": "https://greenmeister.nl/assets/coffeeshopcontent/the-bulldog-the-first.jpg"
    },
    "phone": "",
    "address": "Oudezijds Voorburgwal 90, Amsterdam, Noord-Holland",
    "location": {
      "latitude": "52.3736854",
      "longitude": "4.897659100000055"
    },
    "social": [],
    "menus": [],
    "badges": [],
    "rating": 2
  },
  {
    "name": "The Stud",
    "description": "",
    "photo": {
      "url": ""
    },
    "phone": "",
    "address": "Molukkenstraat 581, Amsterdam, Noord-Holland",
    "location": {
      "latitude": "52.3588002",
      "longitude": "4.941010799999958"
    },
    "social": [],
    "menus": [],
    "badges": [],
    "rating": 5
  },
  {
    "name": "Sativa Amsterdam",
    "description": "",
    "photo": {
      "url": ""
    },
    "phone": "",
    "address": "Spuistraat 118, Amsterdam, Noord-Holland",
    "location": {
      "latitude": "52.3746176",
      "longitude": "4.8902468"
    },
    "social": [],
    "menus": [],
    "badges": [],
    "rating": 5
  },
  {
    "name": "DNA",
    "description": "",
    "photo": {
      "url": ""
    },
    "phone": "",
    "address": "Achillesstraat 104, Amsterdam, Noord-Holland",
    "location": {
      "latitude": "52.3450675",
      "longitude": "4.864189300000021"
    },
    "social": [],
    "menus": [],
    "badges": [],
    "rating": 5
  },
  {
    "name": "De Kade",
    "description": "",
    "photo": {
      "url": ""
    },
    "phone": "",
    "address": "Stadionkade 107, Amsterdam, Noord-Holland",
    "location": {
      "latitude": "52.3435251",
      "longitude": "4.864390700000058"
    },
    "social": [],
    "menus": [],
    "badges": [],
    "rating": 5
  },
  {
    "name": "Relax",
    "description": "",
    "photo": {
      "url": ""
    },
    "phone": "",
    "address": "Binnen Oranjestraat 9, Amsterdam, Noord-Holland",
    "location": {
      "latitude": "52.3821852",
      "longitude": "4.8871910999999955"
    },
    "social": [],
    "menus": [],
    "badges": [],
    "rating": 4
  },
  {
    "name": "Prix d’Ami",
    "description": "",
    "photo": {
      "url": ""
    },
    "phone": "",
    "address": "Haringpakkerssteeg 3, Amsterdam, Noord-Holland",
    "location": {
      "latitude": "52.37684050000001",
      "longitude": "4.897216200000003"
    },
    "social": [],
    "menus": [],
    "badges": [],
    "rating": 4
  },
  {
    "name": "Loft",
    "description": "",
    "photo": {
      "url": ""
    },
    "phone": "",
    "address": "Jan van Galenstraat 285, Amsterdam, Noord-Holland",
    "location": {
      "latitude": "52.37264219999999",
      "longitude": "4.849561300000005"
    },
    "social": [],
    "menus": [],
    "badges": [],
    "rating": 4
  },
  {
    "name": "Abraxas",
    "description": "",
    "photo": {
      "url": ""
    },
    "phone": "",
    "address": "Jonge Roelensteeg 12-14, Amsterdam, Noord-Holland",
    "location": {
      "latitude": "52.3720416",
      "longitude": "4.891161699999998"
    },
    "social": [],
    "menus": [],
    "badges": [],
    "rating": 5
  },
  {
    "name": "Johnny",
    "description": "",
    "photo": {
      "url": ""
    },
    "phone": "",
    "address": "Elandsgracht 36, Amsterdam, Noord-Holland",
    "location": {
      "latitude": "52.3700926",
      "longitude": "4.881522600000039"
    },
    "social": [],
    "menus": [],
    "badges": [],
    "rating": 5
  },
  {
    "name": "Eastwood",
    "description": "",
    "photo": {
      "url": ""
    },
    "phone": "",
    "address": "Pieter Vlamingstraat 286, Amsterdam, Noord-Holland",
    "location": {
      "latitude": "52.365148",
      "longitude": "4.9279710000000705"
    },
    "social": [],
    "menus": [],
    "badges": [],
    "rating": 5
  },
  {
    "name": "Bluebird",
    "description": "",
    "photo": {
      "url": ""
    },
    "phone": "",
    "address": "Sint Antoniesbreestraat 71, Amsterdam, Noord-Holland",
    "location": {
      "latitude": "52.3699875",
      "longitude": "4.900887099999977"
    },
    "social": [],
    "menus": [],
    "badges": [],
    "rating": 5
  },
  {
    "name": "Rusland",
    "description": "",
    "photo": {
      "url": ""
    },
    "phone": "",
    "address": "Rusland 16, Amsterdam, Noord-Holland",
    "location": {
      "latitude": "52.370019",
      "longitude": "4.896262500000034"
    },
    "social": [],
    "menus": [],
    "badges": [],
    "rating": 5
  },
  {
    "name": "Dampkring",
    "description": "",
    "photo": {
      "url": ""
    },
    "phone": "",
    "address": "Handboogstraat 29, Amsterdam, Noord-Holland",
    "location": {
      "latitude": "52.3676979",
      "longitude": "4.890412599999991"
    },
    "social": [],
    "menus": [],
    "badges": [],
    "rating": 4
  },
  {
    "name": "Katsu",
    "description": "",
    "photo": {
      "url": ""
    },
    "phone": "",
    "address": "Eerste van der Helststraat 70, Amsterdam, Noord-Holland",
    "location": {
      "latitude": "52.35483409999999",
      "longitude": "4.893225700000016"
    },
    "social": [],
    "menus": [],
    "badges": [],
    "rating": 4
  },
  {
    "name": "Barney’s",
    "description": "",
    "photo": {
      "url": ""
    },
    "phone": "",
    "address": "Haarlemmerstraat 102, Amsterdam, Noord-Holland",
    "location": {
      "latitude": "52.380638",
      "longitude": "4.891008800000009"
    },
    "social": [],
    "menus": [],
    "badges": [],
    "rating": 4
  },
  {
    "name": "Voyagers",
    "description": "",
    "photo": {
      "url": ""
    },
    "phone": "",
    "address": "Geldersekade 2, Amsterdam, Noord-Holland",
    "location": {
      "latitude": "52.3763782",
      "longitude": "4.90200470000002"
    },
    "social": [],
    "menus": [],
    "badges": [],
    "rating": 5
  },
  {
    "name": "Funny People",
    "description": "",
    "photo": {
      "url": "https://greenmeister.nl/assets/coffeeshopcontent/default.png"
    },
    "phone": "",
    "address": "Tt. Vasumweg 4, Amsterdam, Noord-Holland",
    "location": {
      "latitude": "52.4019923",
      "longitude": "4.8985556"
    },
    "social": [],
    "menus": [],
    "badges": [],
    "rating": 5
  },
  {
    "name": "De Jolly Joker",
    "description": "",
    "photo": {
      "url": ""
    },
    "phone": "",
    "address": "Nieuwmarkt 4, Amsterdam, Noord-Holland",
    "location": {
      "latitude": "52.372773",
      "longitude": "4.900312999999983"
    },
    "social": [],
    "menus": [],
    "badges": [],
    "rating": 4
  },
  {
    "name": "420 Cafe",
    "description": "",
    "photo": {
      "url": ""
    },
    "phone": "",
    "address": "Oudebrugsteeg 27, Amsterdam, Noord-Holland",
    "location": {
      "latitude": "52.375938",
      "longitude": "4.895936000000006"
    },
    "social": [],
    "menus": [],
    "badges": [],
    "rating": 4
  },
  {
    "name": "Grey Area",
    "description": "",
    "photo": {
      "url": ""
    },
    "phone": "",
    "address": "Oude Leliestraat 2, Amsterdam, Noord-Holland",
    "location": {
      "latitude": "52.3747541",
      "longitude": "4.8886084000000665"
    },
    "social": [],
    "menus": [],
    "badges": [],
    "rating": 5
  },
  {
    "name": "Happy Days",
    "description": "",
    "photo": {
      "url": ""
    },
    "phone": "",
    "address": "Amsteldijk 139, Amsterdam, Gelderland",
    "location": {
      "latitude": "52.346683",
      "longitude": "4.911346"
    },
    "social": [],
    "menus": [],
    "badges": [],
    "rating": 4
  },
  {
    "name": "Risky Business",
    "description": "",
    "photo": {
      "url": ""
    },
    "phone": "",
    "address": "Bos en Lommerweg 163, Amsterdam, Noord-Holland",
    "location": {
      "latitude": "52.3809402",
      "longitude": "4.8553280999999515"
    },
    "social": [],
    "menus": [],
    "badges": [],
    "rating": 4
  },
  {
    "name": "The Rookies",
    "description": "",
    "photo": {
      "url": ""
    },
    "phone": "",
    "address": "Korte Leidsedwarsstraat 145, Amsterdam, Noord-Holland",
    "location": {
      "latitude": "52.3629421",
      "longitude": "4.8852620000000115"
    },
    "social": [],
    "menus": [],
    "badges": [],
    "rating": 4
  },
  {
    "name": "Softland 1",
    "description": "",
    "photo": {
      "url": ""
    },
    "phone": "",
    "address": "Spuistraat 222, Amsterdam, Noord-Holland",
    "location": {
      "latitude": "52.3715004",
      "longitude": "4.889184200000045"
    },
    "social": [],
    "menus": [],
    "badges": [],
    "rating": 4
  },
  {
    "name": "Balou",
    "description": "",
    "photo": {
      "url": ""
    },
    "phone": "",
    "address": "Halvemaansteeg 5, Amsterdam, Noord-Holland",
    "location": {
      "latitude": "52.3667496",
      "longitude": "4.895904599999994"
    },
    "social": [],
    "menus": [],
    "badges": [],
    "rating": 4
  },
  {
    "name": "Stone's",
    "description": "",
    "photo": {
      "url": ""
    },
    "phone": "",
    "address": "Ruysdaelkade 145, Amsterdam, Noord-Holland",
    "location": {
      "latitude": "52.3537052",
      "longitude": "4.8872661000000335"
    },
    "social": [],
    "menus": [],
    "badges": [],
    "rating": 4
  },
  {
    "name": "Green House United",
    "description": "",
    "photo": {
      "url": ""
    },
    "phone": "",
    "address": "Haarlemmerstraat 64, Amsterdam, Noord-Holland",
    "location": {
      "latitude": "52.3803548",
      "longitude": "4.892144599999938"
    },
    "social": [],
    "menus": [],
    "badges": [],
    "rating": 4
  },
  {
    "name": "Black star",
    "description": "",
    "photo": {
      "url": ""
    },
    "phone": "",
    "address": "Rozengracht 1A, Amsterdam, Noord-Holland",
    "location": {
      "latitude": "52.3737296",
      "longitude": "4.882632000000058"
    },
    "social": [],
    "menus": [],
    "badges": [],
    "rating": 5
  },
  {
    "name": "Het Ballonnetje",
    "description": "",
    "photo": {
      "url": ""
    },
    "phone": "",
    "address": "Roetersstraat 12, Amsterdam, Noord-Holland",
    "location": {
      "latitude": "52.3634731",
      "longitude": "4.910442399999965"
    },
    "social": [],
    "menus": [],
    "badges": [],
    "rating": 4
  },
  {
    "name": "Paradox",
    "description": "",
    "photo": {
      "url": ""
    },
    "phone": "",
    "address": "Eerste Bloemdwarsstraat 2R, Amsterdam, Noord-Holland",
    "location": {
      "latitude": "52.3744626",
      "longitude": "4.88136940000004"
    },
    "social": [],
    "menus": [],
    "badges": [],
    "rating": 4
  },
  {
    "name": "Goa",
    "description": "",
    "photo": {
      "url": ""
    },
    "phone": "",
    "address": "Kloveniersburgwal 42, Amsterdam, Noord-Holland",
    "location": {
      "latitude": "52.3712624",
      "longitude": "4.898540099999991"
    },
    "social": [],
    "menus": [],
    "badges": [],
    "rating": 4
  },
  {
    "name": "1e Hulp",
    "description": "",
    "photo": {
      "url": ""
    },
    "phone": "",
    "address": "Marnixstraat 194, Amsterdam, Noord-Holland",
    "location": {
      "latitude": "52.3715719",
      "longitude": "4.875836800000002"
    },
    "social": [],
    "menus": [],
    "badges": [],
    "rating": 4
  },
  {
    "name": "Green Place",
    "description": "",
    "photo": {
      "url": ""
    },
    "phone": "",
    "address": "Kloveniersburgwal 4, Amsterdam, Noord-Holland",
    "location": {
      "latitude": "52.3721177",
      "longitude": "4.89927560000001"
    },
    "social": [],
    "menus": [],
    "badges": [],
    "rating": 5
  },
  {
    "name": "Greenhouse Effect",
    "description": "",
    "photo": {
      "url": ""
    },
    "phone": "",
    "address": "Nieuwmarkt 14, Amsterdam, Noord-Holland",
    "location": {
      "latitude": "52.372849",
      "longitude": "4.899858999999992"
    },
    "social": [],
    "menus": [],
    "badges": [],
    "rating": 5
  },
  {
    "name": "De Supermarkt",
    "description": "",
    "photo": {
      "url": ""
    },
    "phone": "",
    "address": "Frederik Hendrikstraat 69HS, Amsterdam, Noord-Holland",
    "location": {
      "latitude": "52.3757756",
      "longitude": "4.87382290000005"
    },
    "social": [],
    "menus": [],
    "badges": [],
    "rating": 5
  },
  {
    "name": "Resin",
    "description": "",
    "photo": {
      "url": ""
    },
    "phone": "",
    "address": "Hekelveld 7, Amsterdam, Noord-Holland",
    "location": {
      "latitude": "52.3778246",
      "longitude": "4.8953559999999925"
    },
    "social": [],
    "menus": [],
    "badges": [],
    "rating": 5
  },
  {
    "name": "Hill Street Blues",
    "description": "",
    "photo": {
      "url": ""
    },
    "phone": "",
    "address": "Warmoesstraat 52A, Amsterdam, Noord-Holland",
    "location": {
      "latitude": "52.3754412",
      "longitude": "4.898187300000018"
    },
    "social": [],
    "menus": [],
    "badges": [],
    "rating": 5
  },
  {
    "name": "Het Gelderse",
    "description": "",
    "photo": {
      "url": ""
    },
    "phone": "",
    "address": "Geldersekade 54, Amsterdam, Noord-Holland",
    "location": {
      "latitude": "52.37496429999999",
      "longitude": "4.901300200000037"
    },
    "social": [],
    "menus": [],
    "badges": [],
    "rating": 5
  },
  {
    "name": "Rockland",
    "description": "",
    "photo": {
      "url": ""
    },
    "phone": "",
    "address": "Raadhuisstraat 101, Amsterdam, Noord-Holland",
    "location": {
      "latitude": "52.37343339999999",
      "longitude": "4.888389700000062"
    },
    "social": [],
    "menus": [],
    "badges": [],
    "rating": 5
  },
  {
    "name": "Reefer",
    "description": "",
    "photo": {
      "url": ""
    },
    "phone": "",
    "address": "Sint Antoniesbreestraat 77, Amsterdam, Noord-Holland",
    "location": {
      "latitude": "52.3699463",
      "longitude": "4.9009203000000525"
    },
    "social": [],
    "menus": [],
    "badges": [],
    "rating": 5
  },
  {
    "name": "Ibiza",
    "description": "",
    "photo": {
      "url": ""
    },
    "phone": "",
    "address": "Hemonystraat 16, Amsterdam, Noord-Holland",
    "location": {
      "latitude": "52.3574702",
      "longitude": "4.902060600000027"
    },
    "social": [],
    "menus": [],
    "badges": [],
    "rating": 5
  },
  {
    "name": "Kadinsky",
    "description": "",
    "photo": {
      "url": ""
    },
    "phone": "",
    "address": "Langebrugsteeg 7a, Amsterdam, Noord-Holland",
    "location": {
      "latitude": "52.3693573",
      "longitude": "4.892990999999938"
    },
    "social": [],
    "menus": [],
    "badges": [],
    "rating": 4
  },
  {
    "name": "The Plug Utopia",
    "description": "",
    "photo": {
      "url": ""
    },
    "phone": "",
    "address": "Nieuwezijds Voorburgwal 132, Amsterdam, Noord-Holland",
    "location": {
      "latitude": "52.3750993",
      "longitude": "4.891612099999975"
    },
    "social": [],
    "menus": [],
    "badges": [],
    "rating": 4
  },
  {
    "name": "Crush",
    "description": "",
    "photo": {
      "url": ""
    },
    "phone": "",
    "address": "Marnixstraat 383, Amsterdam, Noord-Holland",
    "location": {
      "latitude": "52.3657689",
      "longitude": "4.8801866999999675"
    },
    "social": [],
    "menus": [],
    "badges": [],
    "rating": 4
  },
  {
    "name": "Het Ooievaartje",
    "description": "",
    "photo": {
      "url": ""
    },
    "phone": "",
    "address": "Ooievaarsweg 10, Amsterdam, Noord-Holland",
    "location": {
      "latitude": "52.3836155",
      "longitude": "4.9125501999999415"
    },
    "social": [],
    "menus": [],
    "badges": [],
    "rating": 4
  },
  {
    "name": "Family First",
    "description": "",
    "photo": {
      "url": ""
    },
    "phone": "",
    "address": "Amstel 36, Amsterdam, Noord-Holland",
    "location": {
      "latitude": "52.36676509999999",
      "longitude": "4.8954080999999405"
    },
    "social": [],
    "menus": [],
    "badges": [],
    "rating": 4
  },
  {
    "name": "Hugo de Groot",
    "description": "",
    "photo": {
      "url": ""
    },
    "phone": "",
    "address": "Frederik Hendrikstraat 123HS, Amsterdam, Noord-Holland",
    "location": {
      "latitude": "52.3740025",
      "longitude": "4.872578100000055"
    },
    "social": [],
    "menus": [],
    "badges": [],
    "rating": 4
  },
  {
    "name": "The Otherside",
    "description": "",
    "photo": {
      "url": ""
    },
    "phone": "",
    "address": "Reguliersdwarsstraat 6, Amsterdam, Noord-Holland",
    "location": {
      "latitude": "52.3663562",
      "longitude": "4.8903812999999445"
    },
    "social": [],
    "menus": [],
    "badges": [],
    "rating": 4
  },
  {
    "name": "La Tertulia",
    "description": "",
    "photo": {
      "url": ""
    },
    "phone": "",
    "address": "Prinsengracht 312, Amsterdam, Noord-Holland",
    "location": {
      "latitude": "52.3694752",
      "longitude": "4.882284499999969"
    },
    "social": [],
    "menus": [],
    "badges": [],
    "rating": 4
  },
  {
    "name": "Roots",
    "description": "",
    "photo": {
      "url": ""
    },
    "phone": "",
    "address": "Hoekenrode 14, Amsterdam, Noord-Holland",
    "location": {
      "latitude": "52.3117493",
      "longitude": "4.948187700000062"
    },
    "social": [],
    "menus": [],
    "badges": [],
    "rating": 2
  },
  {
    "name": "Feels Good",
    "description": "",
    "photo": {
      "url": ""
    },
    "phone": "",
    "address": "Oudezijds Voorburgwal 36, Amsterdam, Noord-Holland",
    "location": {
      "latitude": "52.3752343",
      "longitude": "4.899516700000049"
    },
    "social": [],
    "menus": [],
    "badges": [],
    "rating": 4
  },
  {
    "name": "De Bommel",
    "description": "",
    "photo": {
      "url": ""
    },
    "phone": "",
    "address": "Balboastraat 19, Amsterdam, Noord-Holland",
    "location": {
      "latitude": "52.3688794",
      "longitude": "4.853756800000042"
    },
    "social": [],
    "menus": [],
    "badges": [],
    "rating": 4
  },
  {
    "name": "Superskunk",
    "description": "",
    "photo": {
      "url": ""
    },
    "phone": "",
    "address": "Prinsengracht 480, Amsterdam, Noord-Holland",
    "location": {
      "latitude": "52.3642588",
      "longitude": "4.885154599999964"
    },
    "social": [],
    "menus": [],
    "badges": [],
    "rating": 4
  },
  {
    "name": "Popeye",
    "description": "",
    "photo": {
      "url": ""
    },
    "phone": "",
    "address": "Haarlemmerstraat 63, Amsterdam, Noord-Holland",
    "location": {
      "latitude": "52.37993969999999",
      "longitude": "4.89277519999996"
    },
    "social": [],
    "menus": [],
    "badges": [],
    "rating": 4
  },
  {
    "name": "Amsterdamned",
    "description": "",
    "photo": {
      "url": ""
    },
    "phone": "",
    "address": "Haarlemmerstraat 6, Amsterdam, Noord-Holland",
    "location": {
      "latitude": "52.3794323",
      "longitude": "4.89400169999999"
    },
    "social": [],
    "menus": [],
    "badges": [],
    "rating": 4
  },
  {
    "name": "New Times",
    "description": "",
    "photo": {
      "url": ""
    },
    "phone": "",
    "address": "Spuistraat 260, Amsterdam, Noord-Holland",
    "location": {
      "latitude": "52.3705697",
      "longitude": "4.888934999999947"
    },
    "social": [],
    "menus": [],
    "badges": [],
    "rating": 4
  },
  {
    "name": "'t Keteltje",
    "description": "",
    "photo": {
      "url": ""
    },
    "phone": "",
    "address": "Marnixstraat 74, Amsterdam, Noord-Holland",
    "location": {
      "latitude": "52.379613",
      "longitude": "4.879644600000006"
    },
    "social": [],
    "menus": [],
    "badges": [],
    "rating": 4
  },
  {
    "name": "De Kroon",
    "description": "",
    "photo": {
      "url": ""
    },
    "phone": "",
    "address": "Oudebrugsteeg 26, Amsterdam, Noord-Holland",
    "location": {
      "latitude": "52.3759553",
      "longitude": "4.895990299999994"
    },
    "social": [],
    "menus": [],
    "badges": [],
    "rating": 3
  },
  {
    "name": "Club Media",
    "description": "",
    "photo": {
      "url": ""
    },
    "phone": "",
    "address": "Gerard Doustraat 85, Amsterdam, Noord-Holland",
    "location": {
      "latitude": "52.3558325",
      "longitude": "4.891899100000046"
    },
    "social": [],
    "menus": [],
    "badges": [],
    "rating": 4
  },
  {
    "name": "City Hall",
    "description": "",
    "photo": {
      "url": ""
    },
    "phone": "",
    "address": "Oudezijds Voorburgwal 189, Amsterdam, Noord-Holland",
    "location": {
      "latitude": "52.3715273",
      "longitude": "4.895777599999974"
    },
    "social": [],
    "menus": [],
    "badges": [],
    "rating": 3
  },
  {
    "name": "New Amsterdam",
    "description": "",
    "photo": {
      "url": ""
    },
    "phone": "",
    "address": "Hoofdweg 226, Amsterdam, Noord-Holland",
    "location": {
      "latitude": "52.36698260000001",
      "longitude": "4.852827499999989"
    },
    "social": [],
    "menus": [],
    "badges": [],
    "rating": 3
  },
  {
    "name": "El Guapo",
    "description": "",
    "photo": {
      "url": ""
    },
    "phone": "",
    "address": "Nieuwe Nieuwstraat 32, Amsterdam, Noord-Holland",
    "location": {
      "latitude": "52.375357",
      "longitude": "4.893584000000033"
    },
    "social": [],
    "menus": [],
    "badges": [],
    "rating": 4
  },
  {
    "name": "Amnesia",
    "description": "",
    "photo": {
      "url": "https://greenmeister.nl/assets/coffeeshopcontent/default.png"
    },
    "phone": "",
    "address": "Bergstraat 11-1, Amsterdam, Noord-Holland",
    "location": {
      "latitude": "52.375511",
      "longitude": "4.8891499"
    },
    "social": [],
    "menus": [],
    "badges": [],
    "rating": 5
  },
  {
    "name": "Speak Easy",
    "description": "",
    "photo": {
      "url": "https://greenmeister.nl/assets/coffeeshopcontent/default.png"
    },
    "phone": "",
    "address": "Eerste Oosterparkstraat 47, Amsterdam, Noord-Holland",
    "location": {
      "latitude": "52.3560077",
      "longitude": "4.9088192"
    },
    "social": [],
    "menus": [],
    "badges": [],
    "rating": 5
  },
  {
    "name": "Bullwackie",
    "description": "",
    "photo": {
      "url": ""
    },
    "phone": "",
    "address": "Woestduinstraat 76, Amsterdam, Noord-Holland",
    "location": {
      "latitude": "52.3520863",
      "longitude": "4.8474545"
    },
    "social": [],
    "menus": [],
    "badges": [],
    "rating": 5
  },
  {
    "name": "Nogal wiedes",
    "description": "",
    "photo": {
      "url": ""
    },
    "phone": "",
    "address": "Czaar Peterstraat 122, Amsterdam, Noord-Holland",
    "location": {
      "latitude": "52.37024049999999",
      "longitude": "4.929894800000056"
    },
    "social": [],
    "menus": [],
    "badges": [],
    "rating": 5
  },
  {
    "name": "Nice Place",
    "description": "",
    "photo": {
      "url": ""
    },
    "phone": "",
    "address": "Van Ostadestraat 290, Amsterdam, Noord-Holland",
    "location": {
      "latitude": "52.3533559",
      "longitude": "4.899693500000012"
    },
    "social": [],
    "menus": [],
    "badges": [],
    "rating": 5
  },
  {
    "name": "Roxy",
    "description": "",
    "photo": {
      "url": ""
    },
    "phone": "",
    "address": "Gerard Doustraat 188, Amsterdam, Noord-Holland",
    "location": {
      "latitude": "52.3563944",
      "longitude": "4.895593500000018"
    },
    "social": [],
    "menus": [],
    "badges": [],
    "rating": 5
  },
  {
    "name": "The Store",
    "description": "",
    "photo": {
      "url": ""
    },
    "phone": "",
    "address": "Singel 14, Amsterdam, Noord-Holland",
    "location": {
      "latitude": "52.37892659999999",
      "longitude": "4.893807299999935"
    },
    "social": [],
    "menus": [],
    "badges": [],
    "rating": 5
  },
  {
    "name": "Best Friends Centrum",
    "description": "",
    "photo": {
      "url": ""
    },
    "phone": "",
    "address": "Huidenstraat 13, Amsterdam, Noord-Holland",
    "location": {
      "latitude": "52.36874890000001",
      "longitude": "4.885745300000053"
    },
    "social": [],
    "menus": [],
    "badges": [],
    "rating": 5
  },
  {
    "name": "The Dolphins",
    "description": "",
    "photo": {
      "url": ""
    },
    "phone": "",
    "address": "Kerkstraat 39, Amsterdam, Noord-Holland",
    "location": {
      "latitude": "52.3656411",
      "longitude": "4.885269999999991"
    },
    "social": [],
    "menus": [],
    "badges": [],
    "rating": 5
  },
  {
    "name": "Bagheera",
    "description": "",
    "photo": {
      "url": ""
    },
    "phone": "",
    "address": "Kloveniersburgwal 60, Amsterdam, Noord-Holland",
    "location": {
      "latitude": "52.37007240000001",
      "longitude": "4.897330199999942"
    },
    "social": [],
    "menus": [],
    "badges": [],
    "rating": 4
  },
  {
    "name": "Solo",
    "description": "",
    "photo": {
      "url": ""
    },
    "phone": "",
    "address": "Korte Koningsstraat 2, Amsterdam, Noord-Holland",
    "location": {
      "latitude": "52.3718645",
      "longitude": "4.902661399999943"
    },
    "social": [],
    "menus": [],
    "badges": [],
    "rating": 4
  },
  {
    "name": "Happy Feelings",
    "description": "",
    "photo": {
      "url": ""
    },
    "phone": "",
    "address": "Kerkstraat 51, Amsterdam, Noord-Holland",
    "location": {
      "latitude": "52.3652842",
      "longitude": "4.885923999999932"
    },
    "social": [],
    "menus": [],
    "badges": [],
    "rating": 4
  },
  {
    "name": "Blue Lagoon",
    "description": "",
    "photo": {
      "url": ""
    },
    "phone": "",
    "address": "Overtoom 342, Amsterdam, Noord-Holland",
    "location": {
      "latitude": "52.360618",
      "longitude": "4.866268999999988"
    },
    "social": [],
    "menus": [],
    "badges": [],
    "rating": 4
  },
  {
    "name": "Green House Centrum",
    "description": "",
    "photo": {
      "url": ""
    },
    "phone": "",
    "address": "Oudezijds Voorburgwal 191, Amsterdam, Noord-Holland",
    "location": {
      "latitude": "52.3714638",
      "longitude": "4.895825500000001"
    },
    "social": [],
    "menus": [],
    "badges": [],
    "rating": 4
  },
  {
    "name": "Mediterrané",
    "description": "",
    "photo": {
      "url": ""
    },
    "phone": "",
    "address": "Spuistraat 80, Amsterdam, Noord-Holland",
    "location": {
      "latitude": "52.3756113",
      "longitude": "4.891547599999967"
    },
    "social": [],
    "menus": [],
    "badges": [],
    "rating": 5
  },
  {
    "name": "Goa Honey Cream",
    "description": "",
    "photo": {
      "url": "https://greenmeister.nl/assets/coffeeshopcontent/default.png"
    },
    "phone": "",
    "address": "Kloveniersburgwal 42, Amsterdam, Noord-Holland",
    "location": {
      "latitude": "52.3712624",
      "longitude": "4.898540099999991"
    },
    "social": [],
    "menus": [],
    "badges": [],
    "rating": 3
  },
  {
    "name": "Best Friends - Oost",
    "description": "",
    "photo": {
      "url": "https://greenmeister.nl/assets/coffeeshopcontent/default.png"
    },
    "phone": "",
    "address": "Niasstraat 1, Amsterdam, Noord-Holland",
    "location": {
      "latitude": "52.3651714",
      "longitude": "4.9397438"
    },
    "social": [],
    "menus": [],
    "badges": [],
    "rating": 3
  },
  {
    "name": "Sensemillia",
    "description": "",
    "photo": {
      "url": "https://greenmeister.nl/assets/coffeeshopcontent/default.png"
    },
    "phone": "",
    "address": "Gillis van Ledenberchstraat 135, Amsterdam, Noord-Holland",
    "location": {
      "latitude": "52.3750935",
      "longitude": "4.8713172"
    },
    "social": [],
    "menus": [],
    "badges": [],
    "rating": 4
  },
  {
    "name": "Warda",
    "description": "",
    "photo": {
      "url": ""
    },
    "phone": "",
    "address": "Van Woustraat 147, Amsterdam, Noord-Holland",
    "location": {
      "latitude": "52.352921",
      "longitude": "4.902990999999929"
    },
    "social": [],
    "menus": [],
    "badges": [],
    "rating": 4
  },
  {
    "name": "Het Keteltje",
    "description": "",
    "photo": {
      "url": ""
    },
    "phone": "",
    "address": "Marnixstraat 74, Amsterdam, Noord-Holland",
    "location": {
      "latitude": "52.37961000000001",
      "longitude": "4.879624899999953"
    },
    "social": [],
    "menus": [],
    "badges": [],
    "rating": 4
  },
  {
    "name": "Freedom",
    "description": "",
    "photo": {
      "url": ""
    },
    "phone": "",
    "address": "Van Hogendorpstraat 201, Amsterdam, Noord-Holland",
    "location": {
      "latitude": "52.3825571",
      "longitude": "4.871181799999931"
    },
    "social": [],
    "menus": [],
    "badges": [],
    "rating": 4
  },
  {
    "name": "The Bush Docter",
    "description": "",
    "photo": {
      "url": ""
    },
    "phone": "",
    "address": "Thorbeckeplein 28, Amsterdam, Noord-Holland",
    "location": {
      "latitude": "52.36511230000001",
      "longitude": "4.895526300000029"
    },
    "social": [],
    "menus": [],
    "badges": [],
    "rating": 4
  },
  {
    "name": "Andalucia",
    "description": "",
    "photo": {
      "url": ""
    },
    "phone": "",
    "address": "Halvemaansteeg 1, Amsterdam, Noord-Holland",
    "location": {
      "latitude": "52.36682140000001",
      "longitude": "4.895889099999977"
    },
    "social": [],
    "menus": [],
    "badges": [],
    "rating": 4
  },
  {
    "name": "Coffeeshop Carmona",
    "description": "",
    "photo": {
      "url": ""
    },
    "phone": "",
    "address": "Tweede Jan van der Heijdenstraat 43, Amsterdam, Noord-Holland",
    "location": {
      "latitude": "52.3556709",
      "longitude": "4.9010703999999805"
    },
    "social": [],
    "menus": [],
    "badges": [],
    "rating": 4
  },
  {
    "name": "Catch33",
    "description": "",
    "photo": {
      "url": ""
    },
    "phone": "",
    "address": "Nassaukade 33, Amsterdam, Noord-Holland",
    "location": {
      "latitude": "52.3826802",
      "longitude": "4.879761300000041"
    },
    "social": [],
    "menus": [],
    "badges": [],
    "rating": 4
  },
  {
    "name": "Funky Munkey",
    "description": "",
    "photo": {
      "url": ""
    },
    "phone": "",
    "address": "Marnixstraat 333, Amsterdam, Noord-Holland",
    "location": {
      "latitude": "52.3727178",
      "longitude": "4.876108299999942"
    },
    "social": [],
    "menus": [],
    "badges": [],
    "rating": 4
  },
  {
    "name": "Betty Boop",
    "description": "",
    "photo": {
      "url": ""
    },
    "phone": "",
    "address": "Humberweg 2, Amsterdam, Noord-Holland",
    "location": {
      "latitude": "52.3909696",
      "longitude": "4.830317499999978"
    },
    "social": [],
    "menus": [],
    "badges": [],
    "rating": 4
  },
  {
    "name": "Barney's Lounge",
    "description": "",
    "photo": {
      "url": ""
    },
    "phone": "",
    "address": "Reguliersgracht 27, Amsterdam, Noord-Holland",
    "location": {
      "latitude": "52.36395419999999",
      "longitude": "4.896267800000032"
    },
    "social": [],
    "menus": [],
    "badges": [],
    "rating": 4
  },
  {
    "name": "Babylon",
    "description": "",
    "photo": {
      "url": ""
    },
    "phone": "",
    "address": "Beursstraat 27, Amsterdam, Noord-Holland",
    "location": {
      "latitude": "52.3747426",
      "longitude": "4.896609000000012"
    },
    "social": [],
    "menus": [],
    "badges": [],
    "rating": 4
  },
  {
    "name": "Massawa",
    "description": "",
    "photo": {
      "url": ""
    },
    "phone": "",
    "address": "Chasséstraat 4, Amsterdam, Noord-Holland",
    "location": {
      "latitude": "52.367561",
      "longitude": "4.8619869000000335"
    },
    "social": [],
    "menus": [],
    "badges": [],
    "rating": 4
  },
  {
    "name": "Kashmir",
    "description": "",
    "photo": {
      "url": ""
    },
    "phone": "",
    "address": "Jan Pieter Heijestraat 82, Amsterdam, Noord-Holland",
    "location": {
      "latitude": "52.3640435",
      "longitude": "4.863005299999941"
    },
    "social": [],
    "menus": [],
    "badges": [],
    "rating": 4
  },
  {
    "name": "La Grotte",
    "description": "",
    "photo": {
      "url": ""
    },
    "phone": "",
    "address": "Haarlemmerstraat 34, Amsterdam, Noord-Holland",
    "location": {
      "latitude": "52.379909",
      "longitude": "4.893189000000007"
    },
    "social": [],
    "menus": [],
    "badges": [],
    "rating": 4
  },
  {
    "name": "Basjoe",
    "description": "",
    "photo": {
      "url": ""
    },
    "phone": "",
    "address": "Kloveniersburgwal 62, Amsterdam, Noord-Holland",
    "location": {
      "latitude": "52.3699993",
      "longitude": "4.897396800000024"
    },
    "social": [],
    "menus": [],
    "badges": [],
    "rating": 4
  },
  {
    "name": "Mellow Yellow",
    "description": "",
    "photo": {
      "url": "https://greenmeister.nl/assets/coffeeshopcontent/default.png"
    },
    "phone": "",
    "address": "Vijzelgracht 33, Amsterdam, Noord-Holland",
    "location": {
      "latitude": "52.3610236",
      "longitude": "4.891359899999998"
    },
    "social": [],
    "menus": [],
    "badges": [],
    "rating": 4
  },
  {
    "name": "Flower Power",
    "description": "",
    "photo": {
      "url": ""
    },
    "phone": "",
    "address": "Rozengracht 139, Amsterdam, Noord-Holland",
    "location": {
      "latitude": "52.3727163",
      "longitude": "4.878598900000043"
    },
    "social": [],
    "menus": [],
    "badges": [],
    "rating": 4
  },
  {
    "name": "Rick's",
    "description": "",
    "photo": {
      "url": "https://greenmeister.nl/assets/coffeeshopcontent/default.png"
    },
    "phone": "",
    "address": "Nieuwe Hoogstraat 22, Amsterdam, Noord-Holland",
    "location": {
      "latitude": "52.37061300000001",
      "longitude": "4.899943900000039"
    },
    "social": [],
    "menus": [],
    "badges": [],
    "rating": 3
  },
  {
    "name": "Kadinsky Cum Laude",
    "description": "",
    "photo": {
      "url": ""
    },
    "phone": "",
    "address": "Langebrugsteeg 7A, Amsterdam, Noord-Holland",
    "location": {
      "latitude": "52.3693439",
      "longitude": "4.892997899999955"
    },
    "social": [],
    "menus": [],
    "badges": [],
    "rating": 3
  },
  {
    "name": "Kadinsky Front Page",
    "description": "",
    "photo": {
      "url": "https://greenmeister.nl/assets/coffeeshopcontent/default.png"
    },
    "phone": "",
    "address": "Zoutsteeg 14, Amsterdam, Noord-Holland",
    "location": {
      "latitude": "52.3742546",
      "longitude": "4.8934781000000385"
    },
    "social": [],
    "menus": [],
    "badges": [],
    "rating": 3
  },
  {
    "name": "Het Oerwoud",
    "description": "",
    "photo": {
      "url": ""
    },
    "phone": "",
    "address": "Warmoesstraat 70, Amsterdam, Noord-Holland",
    "location": {
      "latitude": "52.3750238",
      "longitude": "4.89753799999994"
    },
    "social": [],
    "menus": [],
    "badges": [],
    "rating": 3
  },
  {
    "name": "Freeworld",
    "description": "",
    "photo": {
      "url": ""
    },
    "phone": "",
    "address": "Nieuwendijk 30, Amsterdam, Noord-Holland",
    "location": {
      "latitude": "52.3782716",
      "longitude": "4.895327800000018"
    },
    "social": [],
    "menus": [],
    "badges": [],
    "rating": 3
  },
  {
    "name": "Excalibur",
    "description": "",
    "photo": {
      "url": ""
    },
    "phone": "",
    "address": "Oudezijds Achterburgwal 48, Amsterdam, Noord-Holland",
    "location": {
      "latitude": "52.37402969999999",
      "longitude": "4.899365900000021"
    },
    "social": [],
    "menus": [],
    "badges": [],
    "rating": 3
  },
  {
    "name": "Bronx",
    "description": "",
    "photo": {
      "url": ""
    },
    "phone": "",
    "address": "Marnixstraat 92HS, Amsterdam, Noord-Holland",
    "location": {
      "latitude": "52.3791912",
      "longitude": "4.879386000000068"
    },
    "social": [],
    "menus": [],
    "badges": [],
    "rating": 3
  },
  {
    "name": "Barraka",
    "description": "",
    "photo": {
      "url": ""
    },
    "phone": "",
    "address": "Gravenstraat 9, Amsterdam, Noord-Holland",
    "location": {
      "latitude": "52.37423169999999",
      "longitude": "4.892620399999942"
    },
    "social": [],
    "menus": [],
    "badges": [],
    "rating": 3
  },
  {
    "name": "137",
    "description": "",
    "photo": {
      "url": ""
    },
    "phone": "",
    "address": "Brouwersgracht 137, Amsterdam, Noord-Holland",
    "location": {
      "latitude": "52.3814112",
      "longitude": "4.886258399999974"
    },
    "social": [],
    "menus": [],
    "badges": [],
    "rating": 3
  },
  {
    "name": "Top Weazle",
    "description": "",
    "photo": {
      "url": "https://greenmeister.nl/assets/coffeeshopcontent/default.png"
    },
    "phone": "",
    "address": "Vechtstraat 63, Amsterdam, Noord-Holland",
    "location": {
      "latitude": "52.3459933",
      "longitude": "4.906527399999959"
    },
    "social": [],
    "menus": [],
    "badges": [],
    "rating": 3
  },
  {
    "name": "Trefpunt",
    "description": "",
    "photo": {
      "url": ""
    },
    "phone": "",
    "address": "Zeeburgerdijk 33, Amsterdam, Noord-Holland",
    "location": {
      "latitude": "52.36611639999999",
      "longitude": "4.929864899999984"
    },
    "social": [],
    "menus": [],
    "badges": [],
    "rating": 3
  },
  {
    "name": "Old Amsterdam",
    "description": "",
    "photo": {
      "url": ""
    },
    "phone": "",
    "address": "Amstelstraat 35, Amsterdam, Noord-Holland",
    "location": {
      "latitude": "52.36626080000001",
      "longitude": "4.899419099999932"
    },
    "social": [],
    "menus": [],
    "badges": [],
    "rating": 3
  },
  {
    "name": "Millennium",
    "description": "",
    "photo": {
      "url": ""
    },
    "phone": "",
    "address": "Jan Hanzenstraat 109, Amsterdam, Noord-Holland",
    "location": {
      "latitude": "52.3675061",
      "longitude": "4.863989100000026"
    },
    "social": [],
    "menus": [],
    "badges": [],
    "rating": 3
  },
  {
    "name": "De Keeper",
    "description": "",
    "photo": {
      "url": ""
    },
    "phone": "",
    "address": "Van Woustraat 193, Amsterdam, Noord-Holland",
    "location": {
      "latitude": "52.35125499999999",
      "longitude": "4.903642399999967"
    },
    "social": [],
    "menus": [],
    "badges": [],
    "rating": 3
  },
  {
    "name": "Rock It",
    "description": "",
    "photo": {
      "url": ""
    },
    "phone": "",
    "address": "Nieuwmarkt 12, Amsterdam, Noord-Holland",
    "location": {
      "latitude": "52.3728795",
      "longitude": "4.899853900000039"
    },
    "social": [],
    "menus": [],
    "badges": [],
    "rating": 3
  },
  {
    "name": "Green House Tol",
    "description": "",
    "photo": {
      "url": ""
    },
    "phone": "",
    "address": "Tolstraat 91, Amsterdam, Noord-Holland",
    "location": {
      "latitude": "52.35235729999999",
      "longitude": "4.903333299999986"
    },
    "social": [],
    "menus": [],
    "badges": [],
    "rating": 3
  },
  {
    "name": "Ruthless Amsterdam",
    "description": "",
    "photo": {
      "url": ""
    },
    "phone": "",
    "address": "Hoofdweg 174, Amsterdam, Noord-Holland",
    "location": {
      "latitude": "52.3654788",
      "longitude": "4.853388900000027"
    },
    "social": [],
    "menus": [],
    "badges": [],
    "rating": 3
  },
  {
    "name": "Central",
    "description": "",
    "photo": {
      "url": ""
    },
    "phone": "",
    "address": "Prins Hendrikkade 89, Amsterdam, Noord-Holland",
    "location": {
      "latitude": "52.3766948",
      "longitude": "4.901892500000031"
    },
    "social": [],
    "menus": [],
    "badges": [],
    "rating": 4
  },
  {
    "name": "Atlas",
    "description": "",
    "photo": {
      "url": ""
    },
    "phone": "",
    "address": "Parlevinker 8, Amsterdam, Zuid-Holland",
    "location": {
      "latitude": "52.411554",
      "longitude": "4.922202"
    },
    "social": [],
    "menus": [],
    "badges": [],
    "rating": 3
  },
  {
    "name": "Get Down To It",
    "description": "",
    "photo": {
      "url": ""
    },
    "phone": "",
    "address": "Korte Leidsedwarsstraat 77, Amsterdam, Noord-Holland",
    "location": {
      "latitude": "52.3640155",
      "longitude": "4.883868099999972"
    },
    "social": [],
    "menus": [],
    "badges": [],
    "rating": 2
  },
  {
    "name": "Tops",
    "description": "",
    "photo": {
      "url": "https://greenmeister.nl/assets/coffeeshopcontent/default.png"
    },
    "phone": "",
    "address": "Prinsengracht 480, Amsterdam, Noord-Holland",
    "location": {
      "latitude": "52.3642588",
      "longitude": "4.885154599999964"
    },
    "social": [],
    "menus": [],
    "badges": [],
    "rating": 1
  },
  {
    "name": "YoYo",
    "description": "",
    "photo": {
      "url": "https://greenmeister.nl/assets/coffeeshopcontent/default.png"
    },
    "phone": "",
    "address": "Tweede Jan van der Heijdenstraat 79HS, Amsterdam, Noord-Holland",
    "location": {
      "latitude": "52.3563626",
      "longitude": "4.9031389"
    },
    "social": [],
    "menus": [],
    "badges": [],
    "rating": 0
  },
  {
    "name": "Happy People",
    "description": "",
    "photo": {
      "url": "https://greenmeister.nl/assets/coffeeshopcontent/default.png"
    },
    "phone": "",
    "address": "Dapperstraat 2, Amsterdam, Noord-Holland",
    "location": {
      "latitude": "52.3651603",
      "longitude": "4.9257575"
    },
    "social": [],
    "menus": [],
    "badges": [],
    "rating": 0
  },
  {
    "name": "156",
    "description": "",
    "photo": {
      "url": "https://greenmeister.nl/assets/coffeeshopcontent/default.png"
    },
    "phone": "",
    "address": "Hudsonstraat 156, Amsterdam, Noord-Holland",
    "location": {
      "latitude": "52.3696622",
      "longitude": "4.852468"
    },
    "social": [],
    "menus": [],
    "badges": [],
    "rating": 0
  },
  {
    "name": "Betty Too",
    "description": "",
    "photo": {
      "url": "https://greenmeister.nl/assets/coffeeshopcontent/default.png"
    },
    "phone": "",
    "address": "Reguliersdwarsstraat 29, Amsterdam, Noord-Holland",
    "location": {
      "latitude": "52.3665552",
      "longitude": "4.8902393"
    },
    "social": [],
    "menus": [],
    "badges": [],
    "rating": 0
  },
  {
    "name": "Spirit Amsterdam",
    "description": "",
    "photo": {
      "url": "https://greenmeister.nl/assets/coffeeshopcontent/default.png"
    },
    "phone": "",
    "address": "Westerstraat 121, Amsterdam, Noord-Holland",
    "location": {
      "latitude": "52.3781923",
      "longitude": "4.8829390999999"
    },
    "social": [],
    "menus": [],
    "badges": [],
    "rating": 0
  },
  {
    "name": "Picasso",
    "description": "",
    "photo": {
      "url": "https://greenmeister.nl/assets/coffeeshopcontent/default.png"
    },
    "phone": "",
    "address": "Haarlemmerstraat 6, Amsterdam, Noord-Holland",
    "location": {
      "latitude": "52.3794323",
      "longitude": "4.8940017"
    },
    "social": [],
    "menus": [],
    "badges": [],
    "rating": 0
  },
  {
    "name": "Barneys Farm",
    "description": "",
    "photo": {
      "url": "https://greenmeister.nl/assets/coffeeshopcontent/default.png"
    },
    "phone": "",
    "address": "Haarlemmerstraat 98, Amsterdam, Noord-Holland",
    "location": {
      "latitude": "52.3806615",
      "longitude": "4.8910215"
    },
    "social": [],
    "menus": [],
    "badges": [],
    "rating": 0
  },
  {
    "name": "De Overkant",
    "description": "",
    "photo": {
      "url": "https://greenmeister.nl/assets/coffeeshopcontent/default.png"
    },
    "phone": "",
    "address": "Nieuwe Herengracht 71, Amsterdam, Noord-Holland",
    "location": {
      "latitude": "52.3673174",
      "longitude": "4.9064685"
    },
    "social": [],
    "menus": [],
    "badges": [],
    "rating": 0
  },
  {
    "name": "Kooi",
    "description": "",
    "photo": {
      "url": "https://greenmeister.nl/assets/coffeeshopcontent/default.png"
    },
    "phone": "",
    "address": "Amstelstraat 35, Amsterdam, Noord-Holland",
    "location": {
      "latitude": "52.3662608",
      "longitude": "4.8994190999999"
    },
    "social": [],
    "menus": [],
    "badges": [],
    "rating": 0
  },
  {
    "name": "Ying Yang",
    "description": "",
    "photo": {
      "url": "https://greenmeister.nl/assets/coffeeshopcontent/default.png"
    },
    "phone": "",
    "address": "Knollendamstraat 5, Amsterdam, Noord-Holland",
    "location": {
      "latitude": "52.3905007",
      "longitude": "4.8780717"
    },
    "social": [],
    "menus": [],
    "badges": [],
    "rating": 0
  },
  {
    "name": "Warda 2",
    "description": "",
    "photo": {
      "url": "https://greenmeister.nl/assets/coffeeshopcontent/default.png"
    },
    "phone": "",
    "address": "Javastraat 104, Amsterdam, Noord-Holland",
    "location": {
      "latitude": "52.36361",
      "longitude": "4.9366660000001"
    },
    "social": [],
    "menus": [],
    "badges": [],
    "rating": 0
  },
  {
    "name": "Nachtegaal",
    "description": "",
    "photo": {
      "url": "https://greenmeister.nl/assets/coffeeshopcontent/default.png"
    },
    "phone": "",
    "address": "Krugerplein 22, Amsterdam, Noord-Holland",
    "location": {
      "latitude": "52.3540304",
      "longitude": "4.9192858"
    },
    "social": [],
    "menus": [],
    "badges": [],
    "rating": 0
  },
  {
    "name": "Terminator",
    "description": "",
    "photo": {
      "url": "https://greenmeister.nl/assets/coffeeshopcontent/default.png"
    },
    "phone": "",
    "address": "Admiraal de Ruijterweg 104, Amsterdam, Noord-Holland",
    "location": {
      "latitude": "52.3725509",
      "longitude": "4.8594605000001"
    },
    "social": [],
    "menus": [],
    "badges": [],
    "rating": 0
  },
  {
    "name": "De Watersnip",
    "description": "",
    "photo": {
      "url": "https://greenmeister.nl/assets/coffeeshopcontent/default.png"
    },
    "phone": "",
    "address": "Lodewijk van Deysselstraat 37, Amsterdam, Noord-Holland",
    "location": {
      "latitude": "52.3770607",
      "longitude": "4.8162367"
    },
    "social": [],
    "menus": [],
    "badges": [],
    "rating": 0
  },
  {
    "name": "Blue Sea",
    "description": "",
    "photo": {
      "url": "https://greenmeister.nl/assets/coffeeshopcontent/default.png"
    },
    "phone": "",
    "address": "Van Woustraat 87, Amsterdam, Noord-Holland",
    "location": {
      "latitude": "52.3546107",
      "longitude": "4.9016755"
    },
    "social": [],
    "menus": [],
    "badges": [],
    "rating": 0
  },
  {
    "name": "Second Cheech en Chong's",
    "description": "",
    "photo": {
      "url": "https://greenmeister.nl/assets/coffeeshopcontent/default.png"
    },
    "phone": "",
    "address": "De Clercqstraat 30, Amsterdam, Noord-Holland",
    "location": {
      "latitude": "52.3713327",
      "longitude": "4.8714508"
    },
    "social": [],
    "menus": [],
    "badges": [],
    "rating": 0
  },
  {
    "name": "The Saint",
    "description": "",
    "photo": {
      "url": "https://greenmeister.nl/assets/coffeeshopcontent/default.png"
    },
    "phone": "",
    "address": "Regulierssteeg 2, Amsterdam, Noord-Holland",
    "location": {
      "latitude": "52.366865",
      "longitude": "4.8950106"
    },
    "social": [],
    "menus": [],
    "badges": [],
    "rating": 0
  },
  {
    "name": "Flash Back",
    "description": "",
    "photo": {
      "url": "https://greenmeister.nl/assets/coffeeshopcontent/default.png"
    },
    "phone": "",
    "address": "Hudsonstraat 138, Amsterdam, Noord-Holland",
    "location": {
      "latitude": "52.3687567",
      "longitude": "4.8529782000001"
    },
    "social": [],
    "menus": [],
    "badges": [],
    "rating": 0
  },
  {
    "name": "Crash Light",
    "description": "",
    "photo": {
      "url": "https://greenmeister.nl/assets/coffeeshopcontent/default.png"
    },
    "phone": "",
    "address": "Pretoriusstraat 67, Amsterdam, Noord-Holland",
    "location": {
      "latitude": "52.3547428",
      "longitude": "4.9222306"
    },
    "social": [],
    "menus": [],
    "badges": [],
    "rating": 0
  },
  {
    "name": "The Point",
    "description": "",
    "photo": {
      "url": "https://greenmeister.nl/assets/coffeeshopcontent/default.png"
    },
    "phone": "",
    "address": "Derde Oosterparkstraat 73, Amsterdam, Noord-Holland",
    "location": {
      "latitude": "52.356411",
      "longitude": "4.9162733000001"
    },
    "social": [],
    "menus": [],
    "badges": [],
    "rating": 0
  },
  {
    "name": "De Prijs",
    "description": "",
    "photo": {
      "url": "https://greenmeister.nl/assets/coffeeshopcontent/default.png"
    },
    "phone": "",
    "address": "Surinamestraat 7, Amsterdam, Noord-Holland",
    "location": {
      "latitude": "52.357911",
      "longitude": "4.8539806"
    },
    "social": [],
    "menus": [],
    "badges": [],
    "rating": 0
  },
  {
    "name": "Noon",
    "description": "",
    "photo": {
      "url": "https://greenmeister.nl/assets/coffeeshopcontent/default.png"
    },
    "phone": "",
    "address": "Zieseniskade 22, Amsterdam, Noord-Holland",
    "location": {
      "latitude": "52.3616781",
      "longitude": "4.8862403000001"
    },
    "social": [],
    "menus": [],
    "badges": [],
    "rating": 0
  },
  {
    "name": "El Marssa",
    "description": "",
    "photo": {
      "url": "https://greenmeister.nl/assets/coffeeshopcontent/default.png"
    },
    "phone": "",
    "address": "Witte de Withstraat 106, Amsterdam, Noord-Holland",
    "location": {
      "latitude": "52.3690067",
      "longitude": "4.8593055"
    },
    "social": [],
    "menus": [],
    "badges": [],
    "rating": 0
  },
  {
    "name": "Free I",
    "description": "",
    "photo": {
      "url": "https://greenmeister.nl/assets/coffeeshopcontent/default.png"
    },
    "phone": "",
    "address": "Reguliersdwarsstraat 70, Amsterdam, Noord-Holland",
    "location": {
      "latitude": "52.3659711",
      "longitude": "4.8934319"
    },
    "social": [],
    "menus": [],
    "badges": [],
    "rating": 0
  },
  {
    "name": "chapiteau",
    "description": "",
    "photo": {
      "url": "https://greenmeister.nl/assets/coffeeshopcontent/default.png"
    },
    "phone": "",
    "address": "Van Boetzelaerstraat 31, Amsterdam, Noord-Holland",
    "location": {
      "latitude": "52.3823722",
      "longitude": "4.8730684"
    },
    "social": [],
    "menus": [],
    "badges": [],
    "rating": 0
  },
  {
    "name": "D&L",
    "description": "",
    "photo": {
      "url": "https://greenmeister.nl/assets/coffeeshopcontent/default.png"
    },
    "phone": "",
    "address": "Govert Flinckstraat 323, Amsterdam, Noord-Holland",
    "location": {
      "latitude": "52.3572449",
      "longitude": "4.9013090999999"
    },
    "social": [],
    "menus": [],
    "badges": [],
    "rating": 0
  },
  {
    "name": "Amsterdam",
    "description": "",
    "photo": {
      "url": "https://greenmeister.nl/assets/coffeeshopcontent/default.png"
    },
    "phone": "",
    "address": "Haarlemmerstraat 44, Amsterdam, Noord-Holland",
    "location": {
      "latitude": "52.3800708",
      "longitude": "4.8928703"
    },
    "social": [],
    "menus": [],
    "badges": [],
    "rating": 0
  },
  {
    "name": "Pacific",
    "description": "",
    "photo": {
      "url": "https://greenmeister.nl/assets/coffeeshopcontent/default.png"
    },
    "phone": "",
    "address": "Balthasar Floriszstraat 10, Amsterdam, Noord-Holland",
    "location": {
      "latitude": "52.3530777",
      "longitude": "4.8846859"
    },
    "social": [],
    "menus": [],
    "badges": [],
    "rating": 0
  },
  {
    "name": "Vondel",
    "description": "",
    "photo": {
      "url": ""
    },
    "phone": "",
    "address": "Overtoom 451, Amsterdam, Noord-Holland",
    "location": {
      "latitude": "52.35864609999999",
      "longitude": "4.859262700000045"
    },
    "social": [],
    "menus": [],
    "badges": [],
    "rating": 5
  },
  {
    "name": "The Old Church",
    "description": "",
    "photo": {
      "url": ""
    },
    "phone": "",
    "address": "Amstel 8, Amsterdam, Noord-Holland",
    "location": {
      "latitude": "52.3670123",
      "longitude": "4.894144600000004"
    },
    "social": [],
    "menus": [],
    "badges": [],
    "rating": 4
  },
  {
    "name": "Papillon",
    "description": "",
    "photo": {
      "url": ""
    },
    "phone": "",
    "address": "Van der Helstplein 8, Amsterdam, Noord-Holland",
    "location": {
      "latitude": "52.3516285",
      "longitude": "4.894639600000005"
    },
    "social": [],
    "menus": [],
    "badges": [],
    "rating": 4
  },
  {
    "name": "Green House Namaste",
    "description": "",
    "photo": {
      "url": ""
    },
    "phone": "",
    "address": "Waterlooplein 345, Amsterdam, Noord-Holland",
    "location": {
      "latitude": "52.36661729999999",
      "longitude": "4.902244500000052"
    },
    "social": [],
    "menus": [],
    "badges": [],
    "rating": 4
  },
  {
    "name": "Dutch Flowers",
    "description": "",
    "photo": {
      "url": "https://greenmeister.nl/assets/coffeeshopcontent/default.png"
    },
    "phone": "",
    "address": "Singel 387, Amsterdam, Noord-Holland",
    "location": {
      "latitude": "52.3687589",
      "longitude": "4.888276399999995"
    },
    "social": [],
    "menus": [],
    "badges": [],
    "rating": 4
  },
  {
    "name": "Smokey",
    "description": "",
    "photo": {
      "url": ""
    },
    "phone": "",
    "address": "Rembrandtplein 24, Amsterdam, Noord-Holland",
    "location": {
      "latitude": "52.36565520000001",
      "longitude": "4.896401200000014"
    },
    "social": [],
    "menus": [],
    "badges": [],
    "rating": 2
  },
  {
    "name": "Baba",
    "description": "",
    "photo": {
      "url": ""
    },
    "phone": "",
    "address": "Barentszstraat 130, Amsterdam, Noord-Holland",
    "location": {
      "latitude": "52.3891121",
      "longitude": "4.887577299999975"
    },
    "social": [],
    "menus": [],
    "badges": [],
    "rating": 4
  }
]
